$GPRMC,090457.00,V,,,,,,,110323,,,N*70
$GPVTG,,,,,,,,,N*30
$GPGGA,090457.00,,,,,0,06,3.07,,,,,,*5B
$GPGSA,A,1,17,19,13,07,09,06,,,,,,,3.23,3.07,1.00*03
$GPGSV,6,1,21,01,,,29,02,,,31,04,,,33,05,,,24*70
$GPGSV,6,2,21,06,21,128,31,07,73,205,40,08,68,106,45,09,68,105,44*71
$GPGSV,6,3,21,10,,,27,11,,,33,12,,,32,13,15,327,44*49
$GPGSV,6,4,21,14,11,085,40,15,11,213,,17,45,061,42,19,65,108,44*74
$GPGSV,6,5,21,22,,,31,24,,,33,26,,,30,32,,,28*71
$GPGSV,6,6,21,40,25,159,39*4E
$GPGLL,,,,,090457.00,V,N*45
$GPRMC,090458.00,V,,,,,,,110323,,,N*7F
$GPVTG,,,,,,,,,N*30
$GPGGA,090458.00,,,,,0,04,3.07,,,,,,*56
$GPGSA,A,1,19,13,07,09,,,,,,,,,3.23,3.07,1.00*03
$GPGSV,6,1,22,01,,,28,02,,,31,04,,,33,05,,,32*75
$GPGSV,6,2,22,06,21,128,,07,73,205,39,08,68,106,44,09,68,105,44*7F
$GPGSV,6,3,22,10,,,27,11,,,32,12,,,32,13,15,327,44*4B
$GPGSV,6,4,22,14,11,085,40,15,11,213,16,16,,,26,17,45,061,*47
$GPGSV,6,5,22,19,65,108,44,22,,,29,24,,,33,26,,,30*42
$GPGSV,6,6,22,32,,,28,40,25,159,40*48
$GPGLL,,,,,090458.00,V,N*4A
$GPRMC,090459.00,V,,,,,,,110323,,,N*7E
$GPVTG,,,,,,,,,N*30
$GPGGA,090459.00,,,,,0,05,3.07,,,,,,*56
$GPGSA,A,1,14,19,13,07,09,,,,,,,,3.23,3.07,1.00*06
$GPGSV,6,1,22,01,,,28,02,,,31,04,,,32,05,,,30*76
$GPGSV,6,2,22,06,21,128,,07,73,205,39,08,68,106,44,09,68,105,44*7F
$GPGSV,6,3,22,10,,,25,11,,,32,12,,,32,13,15,327,44*49
$GPGSV,6,4,22,14,11,085,40,15,11,213,12,16,,,24,17,45,061,*41
$GPGSV,6,5,22,19,65,108,44,22,,,26,24,,,33,26,,,30*4D
$GPGSV,6,6,22,32,,,28,40,25,159,40*48
$GPGLL,,,,,090459.00,V,N*4B
$GPRMC,090500.00,V,,,,,,,110323,,,N*73
$GPVTG,,,,,,,,,N*30
$GPGGA,090500.00,,,,,0,04,3.07,,,,,,*5A
$GPGSA,A,1,19,13,07,09,,,,,,,,,3.23,3.07,1.00*03
$GPGSV,6,1,22,01,,,29,02,,,30,04,,,32,05,,,23*74
$GPGSV,6,2,22,06,21,128,,07,73,205,39,08,68,106,44,09,68,105,44*7F
$GPGSV,6,3,22,10,,,27,11,,,32,12,,,31,13,15,327,44*48
$GPGSV,6,4,22,14,11,085,38,15,11,213,08,16,,,25,17,45,061,*44
$GPGSV,6,5,22,19,65,108,45,22,,,31,24,,,33,26,,,31*4B
$GPGSV,6,6,22,32,,,28,40,25,159,39*46
$GPGLL,,,,,090500.00,V,N*46
$GPRMC,090501.00,A,5544.90311,N,03734.68600,E,0.632,,110323,,,A*79
$GPVTG,,T,,M,0.632,N,1.171,K,A*22
$GPGGA,090501.00,5544.90311,N,03734.68600,E,1,05,3.07,169.9,M,13.3,M,,*57
$GPGSA,A,2,06,19,13,07,09,,,,,,,,3.22,3.07,1.00*07
$GPGSV,6,1,22,01,,,28,02,,,30,04,,,32,05,,,21*77
$GPGSV,6,2,22,06,21,128,36,07,73,205,39,08,68,106,44,09,68,105,44*7A
$GPGSV,6,3,22,10,,,25,11,,,31,12,,,31,13,15,327,43*4E
$GPGSV,6,4,22,14,11,085,37,15,11,213,,16,,,23,17,45,061,*45
$GPGSV,6,5,22,19,65,108,44,22,,,22,24,,,32,26,,,30*48
$GPGSV,6,6,22,32,,,27,40,25,159,39*49
$GPGLL,5544.90311,N,03734.68600,E,090501.00,A,A*65
$GPRMC,090502.00,A,5544.90539,N,03734.68884,E,0.753,,110323,,,A*72
$GPVTG,,T,,M,0.753,N,1.394,K,A*2D
$GPGGA,090502.00,5544.90539,N,03734.68884,E,1,05,3.07,171.8,M,13.3,M,,*52
$GPGSA,A,2,19,13,15,07,09,,,,,,,,3.22,3.07,1.00*05
$GPGSV,6,1,22,01,,,28,02,,,30,04,,,32,06,21,128,*4F
$GPGSV,6,2,22,07,73,205,39,08,68,106,44,09,68,105,44,10,,,25*47
$GPGSV,6,3,22,11,,,32,12,,,31,13,15,327,44,14,11,085,38*7F
$GPGSV,6,4,22,15,11,213,33,16,,,28,17,45,061,,19,65,108,44*40
$GPGSV,6,5,22,22,,,27,24,,,33,25,,,29,26,,,30*72
$GPGSV,6,6,22,32,,,27,40,25,159,38*48
$GPGLL,5544.90539,N,03734.68884,E,090502.00,A,A*68
$GPRMC,090503.00,A,5544.90733,N,03734.69141,E,0.791,,110323,,,A*74
$GPVTG,,T,,M,0.791,N,1.465,K,A*2A
$GPGGA,090503.00,5544.90733,N,03734.69141,E,1,05,3.06,173.5,M,13.3,M,,*54
$GPGSA,A,2,14,19,13,07,09,,,,,,,,3.22,3.06,1.00*05
$GPGSV,6,1,23,01,,,30,02,,,30,03,,,35,04,,,32*7C
$GPGSV,6,2,23,05,,,26,06,21,128,,07,73,205,39,08,68,106,44*4C
$GPGSV,6,3,23,09,68,105,44,10,,,24,11,,,33,12,,,31*48
$GPGSV,6,4,23,13,15,327,44,14,11,085,38,15,11,213,,16,,,26*4E
$GPGSV,6,5,23,17,45,061,,19,65,108,44,24,,,32,25,,,21*7A
$GPGSV,6,6,23,26,,,30,32,,,27,40,25,159,38*4E
$GPGLL,5544.90733,N,03734.69141,E,090503.00,A,A*60
$GPRMC,090504.00,A,5544.90900,N,03734.69380,E,0.897,,110323,,,A*7B
$GPVTG,,T,,M,0.897,N,1.661,K,A*25
$GPGGA,090504.00,5544.90900,N,03734.69380,E,1,04,3.06,174.6,M,13.3,M,,*57
$GPGSA,A,2,19,13,07,09,,,,,,,,,3.22,3.06,1.00*00
$GPGSV,6,1,24,01,,,30,02,,,31,03,,,33,04,,,32*7C
$GPGSV,6,2,24,05,,,25,06,21,128,,07,73,205,40,08,68,106,45*47
$GPGSV,6,3,24,09,68,105,45,10,,,28,11,,,33,12,,,32*41
$GPGSV,6,4,24,13,15,327,45,14,11,085,40,15,11,213,,16,,,25*44
$GPGSV,6,5,24,17,45,061,,19,65,108,45,22,,,24,24,,,33*7F
$GPGSV,6,6,24,25,,,24,26,,,31,32,,,26,40,25,159,38*48
$GPGLL,5544.90900,N,03734.69380,E,090504.00,A,A*66
$GPRMC,090505.00,A,5544.91046,N,03734.69593,E,0.716,,110323,,,A*72
$GPVTG,,T,,M,0.716,N,1.326,K,A*25
$GPGGA,090505.00,5544.91046,N,03734.69593,E,1,04,3.06,174.9,M,13.3,M,,*57
$GPGSA,A,2,19,13,07,09,,,,,,,,,3.22,3.06,1.00*00
$GPGSV,6,1,24,01,,,29,02,,,31,03,,,33,04,,,31*77
$GPGSV,6,2,24,05,,,25,06,21,128,,07,73,205,40,08,68,106,45*47
$GPGSV,6,3,24,09,68,105,45,10,,,27,11,,,33,12,,,32*4E
$GPGSV,6,4,24,13,15,327,45,14,11,085,40,15,11,213,,16,,,24*45
$GPGSV,6,5,24,17,45,061,,19,65,108,45,22,,,24,24,,,32*7E
$GPGSV,6,6,24,25,,,24,26,,,31,32,,,25,40,25,159,37*44
$GPGLL,5544.91046,N,03734.69593,E,090505.00,A,A*69
$GPRMC,090506.00,A,5544.91179,N,03734.69795,E,1.288,42.59,110323,,,A*5F
$GPVTG,42.59,T,,M,1.288,N,2.386,K,A*0B
$GPGGA,090506.00,5544.91179,N,03734.69795,E,1,04,3.06,175.1,M,13.3,M,,*54
$GPGSA,A,2,19,13,07,09,,,,,,,,,3.22,3.06,1.00*00
$GPGSV,6,1,24,01,,,28,02,,,31,03,,,33,04,,,31*76
$GPGSV,6,2,24,05,,,24,06,21,128,,07,73,205,40,08,68,106,45*46
$GPGSV,6,3,24,09,68,105,45,10,,,27,11,,,32,12,,,31*4C
$GPGSV,6,4,24,13,15,327,45,14,11,085,41,15,11,213,,16,,,28*48
$GPGSV,6,5,24,17,45,061,,19,65,108,45,22,,,24,24,,,32*7E
$GPGSV,6,6,24,25,,,30,26,,,31,32,,,26,40,25,159,38*4D
$GPGLL,5544.91179,N,03734.69795,E,090506.00,A,A*63
$GPRMC,090507.00,A,5544.91306,N,03734.69994,E,1.100,52.50,110323,,,A*50
$GPVTG,52.50,T,,M,1.100,N,2.037,K,A*09
$GPGGA,090507.00,5544.91306,N,03734.69994,E,1,04,3.06,175.8,M,13.3,M,,*59
$GPGSA,A,2,19,13,07,09,,,,,,,,,3.22,3.06,1.00*00
$GPGSV,6,1,24,01,,,27,02,,,31,03,,,32,04,,,31*78
$GPGSV,6,2,24,05,,,25,06,21,128,,07,73,204,40,08,68,106,46*45
$GPGSV,6,3,24,09,68,105,45,10,,,28,11,,,33,12,,,31*42
$GPGSV,6,4,24,13,15,327,45,14,11,085,42,15,11,213,,16,,,26*45
$GPGSV,6,5,24,17,45,061,,19,65,108,45,22,,,23,24,,,32*79
$GPGSV,6,6,24,25,,,21,26,,,31,32,,,25,40,25,159,37*41
$GPGLL,5544.91306,N,03734.69994,E,090507.00,A,A*67
$GPRMC,090508.00,A,5544.91426,N,03734.70193,E,1.232,61.84,110323,,,A*56
$GPVTG,61.84,T,,M,1.232,N,2.281,K,A*0D
$GPGGA,090508.00,5544.91426,N,03734.70193,E,1,05,3.06,175.9,M,13.3,M,,*54
$GPGSA,A,2,14,19,13,07,09,,,,,,,,3.22,3.06,1.00*05
$GPGSV,6,1,24,01,,,28,02,,,31,03,,,32,04,,,31*77
$GPGSV,6,2,24,05,,,26,06,21,128,,07,73,204,40,08,68,105,46*45
$GPGSV,6,3,24,09,68,105,46,10,,,26,11,,,33,12,,,31*4F
$GPGSV,6,4,24,13,15,327,46,14,11,085,41,15,11,213,,16,,,26*45
$GPGSV,6,5,24,17,45,061,,19,65,108,45,22,,,29,24,,,32*73
$GPGSV,6,6,24,25,,,23,26,,,31,32,,,27,40,25,159,38*4E
$GPGLL,5544.91426,N,03734.70193,E,090508.00,A,A*6A
$GPRMC,090509.00,A,5544.91546,N,03734.70396,E,0.972,66.16,110323,,,A*55
$GPVTG,66.16,T,,M,0.972,N,1.801,K,A*0E
$GPGGA,090509.00,5544.91546,N,03734.70396,E,1,04,3.06,175.2,M,13.3,M,,*5F
$GPGSA,A,2,19,13,07,09,,,,,,,,,3.22,3.06,1.00*00
$GPGSV,6,1,23,01,,,27,02,,,31,03,,,32,04,,,31*7F
$GPGSV,6,2,23,05,,,32,06,21,128,,07,73,204,40,08,68,105,46*47
$GPGSV,6,3,23,09,68,105,46,11,,,33,12,,,31,13,15,327,46*7F
$GPGSV,6,4,23,14,11,085,41,15,11,213,,16,,,26,17,45,061,*40
$GPGSV,6,5,23,19,65,108,45,22,,,20,24,,,32,25,,,22*4A
$GPGSV,6,6,23,26,,,31,32,,,29,40,25,159,38*41
$GPGLL,5544.91546,N,03734.70396,E,090509.00,A,A*6B
$GPRMC,090510.00,A,5544.91658,N,03734.70586,E,0.800,,110323,,,A*7B
$GPVTG,,T,,M,0.800,N,1.481,K,A*27
$GPGGA,090510.00,5544.91658,N,03734.70586,E,1,04,3.06,175.1,M,13.3,M,,*5F
$GPGSA,A,2,19,13,07,09,,,,,,,,,3.22,3.06,1.00*00
$GPGSV,6,1,24,01,,,28,02,,,31,03,,,32,04,,,32*74
$GPGSV,6,2,24,05,,,31,06,21,128,,07,73,204,39,08,68,105,46*4D
$GPGSV,6,3,24,09,68,105,46,10,,,27,11,,,33,12,,,31*4E
$GPGSV,6,4,24,13,16,327,46,14,11,085,42,15,11,213,,16,,,36*44
$GPGSV,6,5,24,17,45,061,,19,65,108,46,22,,,18,24,,,32*72
$GPGSV,6,6,24,25,,,23,26,,,32,32,,,27,40,25,159,37*42
$GPGLL,5544.91658,N,03734.70586,E,090510.00,A,A*68
$GPRMC,090511.00,A,5544.91759,N,03734.70765,E,0.747,,110323,,,A*79
$GPVTG,,T,,M,0.747,N,1.383,K,A*2E
$GPGGA,090511.00,5544.91759,N,03734.70765,E,1,05,3.06,175.7,M,13.3,M,,*56
$GPGSA,A,2,19,13,06,07,09,,,,,,,,3.22,3.06,1.00*06
$GPGSV,6,1,23,01,,,29,02,,,32,03,,,32,04,,,32*71
$GPGSV,6,2,23,05,,,30,06,21,128,37,07,73,204,40,08,68,105,46*41
$GPGSV,6,3,23,09,68,105,46,10,,,26,11,,,33,12,,,31*48
$GPGSV,6,4,23,13,16,327,46,14,11,085,42,15,11,213,,16,,,37*42
$GPGSV,6,5,23,17,45,061,,19,65,108,46,22,,,24,24,,,33*7B
$GPGSV,6,6,23,25,,,27,26,,,32,40,25,159,37*45
$GPGLL,5544.91759,N,03734.70765,E,090511.00,A,A*66
$GPRMC,090512.00,A,5544.91857,N,03734.70942,E,0.730,,110323,,,A*70
$GPVTG,,T,,M,0.730,N,1.352,K,A*22
$GPGGA,090512.00,5544.91857,N,03734.70942,E,1,05,3.06,175.7,M,13.3,M,,*5F
$GPGSA,A,2,14,19,13,07,09,,,,,,,,3.22,3.06,1.00*05
$GPGSV,6,1,21,01,,,29,02,,,31,03,,,32,04,,,32*70
$GPGSV,6,2,21,06,21,128,,07,73,204,39,08,68,105,46,09,68,105,45*7D
$GPGSV,6,3,21,10,,,24,11,,,33,12,,,31,13,16,327,46*48
$GPGSV,6,4,21,14,11,085,42,15,11,213,,16,,,31,17,45,061,*47
$GPGSV,6,5,21,19,65,108,46,24,,,33,25,,,24,26,,,31*48
$GPGSV,6,6,21,40,25,159,37*40
$GPGLL,5544.91857,N,03734.70942,E,090512.00,A,A*6F
$GPRMC,090513.00,A,5544.91953,N,03734.71119,E,1.077,69.35,110323,,,A*51
$GPVTG,69.35,T,,M,1.077,N,1.994,K,A*00
$GPGGA,090513.00,5544.91953,N,03734.71119,E,1,06,3.06,175.2,M,13.3,M,,*5A
$GPGSA,A,2,14,19,13,06,07,09,,,,,,,3.22,3.06,1.00*03
$GPGSV,6,1,22,01,,,29,02,,,30,03,,,31,04,,,30*73
$GPGSV,6,2,22,05,,,29,06,21,128,35,07,73,204,39,08,68,105,45*47
$GPGSV,6,3,22,09,68,105,45,10,,,23,11,,,32,12,,,29*47
$GPGSV,6,4,22,13,16,327,45,14,11,085,41,15,11,213,,16,,,30*44
$GPGSV,6,5,22,17,44,061,,19,65,108,45,22,,,24,24,,,32*79
$GPGSV,6,6,22,26,,,30,40,25,159,36*45
$GPGLL,5544.91953,N,03734.71119,E,090513.00,A,A*6C
$GPRMC,090514.00,A,5544.92042,N,03734.71285,E,1.049,71.25,110323,,,A*5F
$GPVTG,71.25,T,,M,1.049,N,1.943,K,A*0F
$GPGGA,090514.00,5544.92042,N,03734.71285,E,1,05,3.06,175.9,M,13.3,M,,*59
$GPGSA,A,2,14,19,13,07,09,,,,,,,,3.22,3.06,1.00*05
$GPGSV,6,1,23,01,,,29,02,,,31,03,,,32,04,,,31*71
$GPGSV,6,2,23,05,,,26,06,21,128,,07,73,204,40,08,68,105,46*42
$GPGSV,6,3,23,09,68,105,46,11,,,33,12,,,30,13,16,327,46*7D
$GPGSV,6,4,23,14,11,085,42,15,11,213,,16,,,29,17,44,061,*4D
$GPGSV,6,5,23,19,65,108,46,22,,,23,24,,,32,25,,,29*41
$GPGSV,6,6,23,26,,,31,27,,,29,40,25,159,37*4A
$GPGLL,5544.92042,N,03734.71285,E,090514.00,A,A*67
$GPRMC,090515.00,A,5544.92128,N,03734.71447,E,0.962,73.34,110323,,,A*58
$GPVTG,73.34,T,,M,0.962,N,1.782,K,A*0F
$GPGGA,090515.00,5544.92128,N,03734.71447,E,1,05,3.06,176.4,M,13.3,M,,*53
$GPGSA,A,2,14,19,13,07,09,,,,,,,,3.22,3.06,1.00*05
$GPGSV,6,1,23,01,,,29,02,,,31,03,,,31,04,,,31*72
$GPGSV,6,2,23,05,,,26,06,21,128,,07,73,204,40,08,68,105,46*42
$GPGSV,6,3,23,09,68,105,46,10,,,30,11,,,33,12,,,30*4E
$GPGSV,6,4,23,13,16,327,46,14,11,085,42,15,11,213,,16,,,29*4D
$GPGSV,6,5,23,17,44,061,,19,65,108,46,24,,,32,25,,,27*7F
$GPGSV,6,6,23,26,,,31,27,,,30,40,25,159,37*42
$GPGLL,5544.92128,N,03734.71447,E,090515.00,A,A*63
$GPRMC,090516.00,A,5544.92216,N,03734.71618,E,1.021,73.18,110323,,,A*5C
$GPVTG,73.18,T,,M,1.021,N,1.890,K,A*02
$GPGGA,090516.00,5544.92216,N,03734.71618,E,1,05,3.06,176.0,M,13.3,M,,*52
$GPGSA,A,2,14,19,13,07,09,,,,,,,,3.22,3.06,1.00*05
$GPGSV,6,1,24,01,,,29,02,,,31,03,,,31,04,,,31*75
$GPGSV,6,2,24,05,,,24,06,21,128,,07,73,204,40,08,68,105,46*47
$GPGSV,6,3,24,09,68,105,45,10,,,21,11,,,33,12,,,31*4B
$GPGSV,6,4,24,13,16,327,45,14,11,085,40,15,11,213,,16,,,30*43
$GPGSV,6,5,24,17,44,061,,19,65,108,45,22,,,26,24,,,32*7D
$GPGSV,6,6,24,25,,,25,26,,,31,27,,,30,40,25,159,38*4A
$GPGLL,5544.92216,N,03734.71618,E,090516.00,A,A*66
$GPRMC,090517.00,A,5544.92300,N,03734.71787,E,1.226,69.37,110323,,,A*5F
$GPVTG,69.37,T,,M,1.226,N,2.271,K,A*07
$GPGGA,090517.00,5544.92300,N,03734.71787,E,1,04,3.06,175.9,M,13.3,M,,*59
$GPGSA,A,2,19,13,07,09,,,,,,,,,3.22,3.06,1.00*00
$GPGSV,6,1,24,01,,,29,02,,,31,03,,,32,04,,,31*76
$GPGSV,6,2,24,05,,,25,06,21,128,,07,73,204,39,08,68,105,45*4B
$GPGSV,6,3,24,09,68,105,45,10,,,27,11,,,33,12,,,31*4D
$GPGSV,6,4,24,13,16,327,45,14,11,085,39,15,11,213,,16,,,30*4D
$GPGSV,6,5,24,17,44,061,,19,65,108,45,22,,,24,24,,,31*7C
$GPGSV,6,6,24,25,,,23,26,,,31,27,,,30,40,25,159,39*4D
$GPGLL,5544.92300,N,03734.71787,E,090517.00,A,A*66
$GPRMC,090518.00,A,5544.92384,N,03734.71957,E,0.944,71.60,110323,,,A*5A
$GPVTG,71.60,T,,M,0.944,N,1.747,K,A*01
$GPGGA,090518.00,5544.92384,N,03734.71957,E,1,04,3.06,176.0,M,13.3,M,,*53
$GPGSA,A,2,19,13,07,09,,,,,,,,,3.21,3.06,1.00*03
$GPGSV,6,1,23,01,,,29,02,,,31,03,,,32,04,,,31*71
$GPGSV,6,2,23,05,,,27,06,21,128,,07,73,204,40,08,68,105,45*40
$GPGSV,6,3,23,09,68,105,45,10,,,26,11,,,32,12,,,31*4A
$GPGSV,6,4,23,13,16,327,45,14,11,085,39,15,11,213,,16,,,30*4A
$GPGSV,6,5,23,17,44,061,,19,65,108,45,22,,,22,24,,,31*7D
$GPGSV,6,6,23,26,,,30,27,,,30,40,25,159,39*4D
$GPGLL,5544.92384,N,03734.71957,E,090518.00,A,A*66
$GPRMC,090519.00,A,5544.92462,N,03734.72116,E,0.616,,110323,,,A*7C
$GPVTG,,T,,M,0.616,N,1.140,K,A*26
$GPGGA,090519.00,5544.92462,N,03734.72116,E,1,04,3.05,176.9,M,13.3,M,,*59
$GPGSA,A,2,19,13,07,09,,,,,,,,,3.21,3.05,1.00*00
$GPGSV,6,1,24,01,,,29,02,,,31,03,,,32,04,,,31*76
$GPGSV,6,2,24,05,,,29,06,21,128,,07,73,204,40,08,68,105,45*49
$GPGSV,6,3,24,09,68,105,45,10,,,26,11,,,32,12,,,31*4D
$GPGSV,6,4,24,13,16,327,45,14,11,085,39,15,11,213,,16,,,30*4D
$GPGSV,6,5,24,17,44,061,,19,65,108,45,22,,,22,24,,,32*79
$GPGSV,6,6,24,25,,,29,26,,,31,27,,,30,40,25,159,39*47
$GPGLL,5544.92462,N,03734.72116,E,090519.00,A,A*66
$GPRMC,090520.00,A,5544.92536,N,03734.72268,E,0.663,,110323,,,A*7E
$GPVTG,,T,,M,0.663,N,1.227,K,A*26
$GPGGA,090520.00,5544.92536,N,03734.72268,E,1,03,3.05,177.6,M,13.3,M,,*50
$GPGSA,A,2,13,07,09,,,,,,,,,,3.21,3.05,1.00*08
$GPGSV,6,1,24,01,,,29,02,,,31,03,,,31,04,,,31*75
$GPGSV,6,2,24,05,,,27,06,21,128,,07,73,204,40,08,68,105,45*47
$GPGSV,6,3,24,09,68,105,45,10,,,23,11,,,33,12,,,31*49
$GPGSV,6,4,24,13,16,327,45,14,11,085,47,15,11,213,,16,,,31*45
$GPGSV,6,5,24,17,44,061,,19,65,108,,22,,,21,24,,,32*7B
$GPGSV,6,6,24,25,,,27,26,,,30,27,,,30,40,25,159,39*48
$GPGLL,5544.92536,N,03734.72268,E,090520.00,A,A*66
$GPRMC,090521.00,A,5544.92604,N,03734.72414,E,1.056,72.03,110323,,,A*59
$GPVTG,72.03,T,,M,1.056,N,1.956,K,A*02
$GPGGA,090521.00,5544.92604,N,03734.72414,E,1,04,3.05,177.6,M,13.3,M,,*59
$GPGSA,A,2,14,13,07,09,,,,,,,,,3.21,3.05,1.00*0D
$GPGSV,6,1,24,01,,,28,02,,,32,03,,,32,04,,,32*77
$GPGSV,6,2,24,05,,,24,06,21,128,32,07,73,204,40,08,68,105,45*45
$GPGSV,6,3,24,09,68,105,45,10,,,29,11,,,33,12,,,32*40
$GPGSV,6,4,24,13,16,327,45,14,11,085,45,15,11,213,,16,,,30*46
$GPGSV,6,5,24,17,44,061,,19,65,108,,22,,,29,24,,,32*73
$GPGSV,6,6,24,25,,,27,26,,,30,27,,,29,40,25,159,39*40
$GPGLL,5544.92604,N,03734.72414,E,090521.00,A,A*68
$GPRMC,090522.00,A,5544.92673,N,03734.72561,E,0.851,,110323,,,A*7F
$GPVTG,,T,,M,0.851,N,1.577,K,A*2B
$GPGGA,090522.00,5544.92673,N,03734.72561,E,1,03,3.05,177.8,M,13.3,M,,*50
$GPGSA,A,2,13,07,09,,,,,,,,,,3.21,3.05,1.00*08
$GPGSV,6,1,24,01,,,29,02,,,31,03,,,31,04,,,32*76
$GPGSV,6,2,24,05,,,27,06,21,128,,07,73,204,40,08,68,105,46*44
$GPGSV,6,3,24,09,68,105,45,10,,,27,11,,,32,12,,,30*4D
$GPGSV,6,4,24,13,16,327,45,14,11,085,44,15,11,213,,16,,,30*47
$GPGSV,6,5,24,17,44,061,,19,65,108,,22,,,22,24,,,32*78
$GPGSV,6,6,24,25,,,25,26,,,30,27,,,30,40,25,159,39*4A
$GPGLL,5544.92673,N,03734.72561,E,090522.00,A,A*68
$GPRMC,090523.00,A,5544.92742,N,03734.72710,E,0.699,,110323,,,A*73
$GPVTG,,T,,M,0.699,N,1.294,K,A*2B
$GPGGA,090523.00,5544.92742,N,03734.72710,E,1,03,3.05,177.8,M,13.3,M,,*56
$GPGSA,A,2,13,07,09,,,,,,,,,,3.21,3.05,1.00*08
$GPGSV,6,1,23,01,,,29,02,,,31,03,,,32,04,,,32*72
$GPGSV,6,2,23,05,,,29,06,21,128,,07,73,204,39,08,68,105,45*40
$GPGSV,6,3,23,09,68,105,45,11,,,33,12,,,31,13,16,327,45*7C
$GPGSV,6,4,23,14,11,085,41,15,11,213,,16,,,31,17,44,061,*47
$GPGSV,6,5,23,19,65,108,,22,,,28,24,,,32,25,,,23*42
$GPGSV,6,6,23,26,,,31,27,,,30,40,25,159,39*4C
$GPGLL,5544.92742,N,03734.72710,E,090523.00,A,A*6E
$GPRMC,090524.00,A,5544.92812,N,03734.72857,E,0.848,,110323,,,A*70
$GPVTG,,T,,M,0.848,N,1.570,K,A*24
$GPGGA,090524.00,5544.92812,N,03734.72857,E,1,04,3.05,176.3,M,13.3,M,,*5A
$GPGSA,A,2,06,13,07,09,,,,,,,,,3.21,3.05,1.00*0E
$GPGSV,6,1,24,01,,,28,02,,,31,03,,,32,04,,,31*77
$GPGSV,6,2,24,05,,,30,06,21,128,35,07,73,204,38,08,68,105,45*48
$GPGSV,6,3,24,09,68,105,45,10,,,24,11,,,33,12,,,32*4D
$GPGSV,6,4,24,13,16,327,45,14,11,085,44,15,11,213,,16,,,30*47
$GPGSV,6,5,24,17,44,061,,19,65,108,,22,,,26,24,,,32*7C
$GPGSV,6,6,24,25,,,27,26,,,31,27,,,29,40,25,159,39*41
$GPGLL,5544.92812,N,03734.72857,E,090524.00,A,A*6F
$GPRMC,090525.00,A,5544.92885,N,03734.73011,E,0.622,,110323,,,A*76
$GPVTG,,T,,M,0.622,N,1.152,K,A*22
$GPGGA,090525.00,5544.92885,N,03734.73011,E,1,04,3.05,176.5,M,13.3,M,,*58
$GPGSA,A,2,14,13,07,09,,,,,,,,,3.21,3.05,1.00*0D
$GPGSV,6,1,24,01,,,29,02,,,31,03,,,32,04,,,31*76
$GPGSV,6,2,24,05,,,30,06,21,128,,07,73,204,39,08,68,105,45*4F
$GPGSV,6,3,24,09,68,105,45,10,,,32,11,,,33,12,,,32*4A
$GPGSV,6,4,24,13,16,327,45,14,11,085,39,15,11,213,,16,,,30*4D
$GPGSV,6,5,24,17,44,061,,19,65,108,,22,,,28,24,,,32*72
$GPGSV,6,6,24,25,,,25,26,,,31,27,,,30,40,25,159,39*4B
$GPGLL,5544.92885,N,03734.73011,E,090525.00,A,A*6B
$GPRMC,090526.00,V,,,,,,,110323,,,N*77
$GPVTG,,,,,,,,,N*30
$GPGGA,090526.00,,,,,0,00,99.99,,,,,,*6E
$GPGSA,A,1,,,,,,,,,,,,,99.99,99.99,99.99*30
$GPGSV,6,1,24,01,,,29,02,,,31,03,,,32,04,,,32*75
$GPGSV,6,2,24,05,,,30,06,21,128,39,07,73,204,40,08,68,105,45*4B
$GPGSV,6,3,24,09,68,105,48,10,,,29,11,,,33,12,,,32*4D
$GPGSV,6,4,24,13,16,327,45,14,11,085,48,15,11,213,,16,,,31*4A
$GPGSV,6,5,24,17,44,061,,19,65,108,,22,,,26,24,,,33*7D
$GPGSV,6,6,24,25,,,21,26,,,31,27,,,30,40,25,159,39*4F
$GPGLL,,,,,090526.00,V,N*42
$GPRMC,090527.00,A,5544.92967,N,03734.73271,E,0.610,,110323,,,A*7C
$GPVTG,,T,,M,0.610,N,1.129,K,A*2F
$GPGGA,090527.00,5544.92967,N,03734.73271,E,1,05,3.05,179.7,M,13.3,M,,*5F
$GPGSA,A,2,06,13,15,07,09,,,,,,,,3.21,3.05,1.00*0A
$GPGSV,6,1,24,01,,,29,02,,,31,03,,,32,04,,,32*75
$GPGSV,6,2,24,05,,,30,06,21,128,37,07,73,204,40,08,68,105,45*45
$GPGSV,6,3,24,09,68,105,45,10,,,28,11,,,32,12,,,31*43
$GPGSV,6,4,24,13,16,327,45,14,11,085,46,15,11,213,31,16,,,30*47
$GPGSV,6,5,24,17,44,061,,19,65,108,,22,,,24,24,,,33*7F
$GPGSV,6,6,24,25,,,30,26,,,31,27,,,30,40,25,159,39*4F
$GPGLL,5544.92967,N,03734.73271,E,090527.00,A,A*60
$GPRMC,090528.00,A,5544.93043,N,03734.73459,E,0.621,,110323,,,A*73
$GPVTG,,T,,M,0.621,N,1.150,K,A*23
$GPGGA,090528.00,5544.93043,N,03734.73459,E,1,04,3.05,179.0,M,13.3,M,,*54
$GPGSA,A,2,14,13,07,09,,,,,,,,,3.21,3.05,1.00*0D
$GPGSV,6,1,23,01,,,28,02,,,31,03,,,32,04,,,32*73
$GPGSV,6,2,23,05,,,30,06,21,128,40,07,73,204,40,08,68,105,45*42
$GPGSV,6,3,23,09,68,105,45,10,,,24,11,,,32,12,,,31*48
$GPGSV,6,4,23,13,16,327,45,14,11,085,45,15,11,213,37,16,,,30*45
$GPGSV,6,5,23,17,44,061,,19,65,108,,24,,,32,25,,,26*7C
$GPGSV,6,6,23,26,,,31,27,,,30,40,25,159,39*4C
$GPGLL,5544.93043,N,03734.73459,E,090528.00,A,A*6D
$GPRMC,090529.00,A,5544.93112,N,03734.73627,E,0.742,,110323,,,A*78
$GPVTG,,T,,M,0.742,N,1.374,K,A*23
$GPGGA,090529.00,5544.93112,N,03734.73627,E,1,04,3.05,178.4,M,13.3,M,,*5E
$GPGSA,A,2,06,13,07,09,,,,,,,,,3.21,3.05,1.00*0E
$GPGSV,6,1,23,01,,,28,02,,,30,03,,,32,04,,,32*72
$GPGSV,6,2,23,05,,,30,06,21,128,37,07,73,204,39,08,68,105,44*4D
$GPGSV,6,3,23,09,68,105,43,10,,,26,11,,,31,12,,,31*4F
$GPGSV,6,4,23,13,16,327,44,14,11,085,44,15,11,213,,16,,,30*41
$GPGSV,6,5,23,17,44,061,,19,65,108,,24,,,32,25,,,22*78
$GPGSV,6,6,23,26,,,31,27,,,30,40,25,159,39*4C
$GPGLL,5544.93112,N,03734.73627,E,090529.00,A,A*62
$GPRMC,090530.00,A,5544.93175,N,03734.73777,E,0.774,,110323,,,A*70
$GPVTG,,T,,M,0.774,N,1.434,K,A*25
$GPGGA,090530.00,5544.93175,N,03734.73777,E,1,04,3.05,178.2,M,13.3,M,,*55
$GPGSA,A,2,14,13,07,09,,,,,,,,,3.21,3.05,1.00*0D
$GPGSV,6,1,24,01,,,28,02,,,30,03,,,31,04,,,31*75
$GPGSV,6,2,24,05,,,28,06,21,128,37,07,73,204,38,08,68,105,44*42
$GPGSV,6,3,24,09,68,105,43,10,,,25,11,,,30,12,,,30*4B
$GPGSV,6,4,24,13,16,327,43,14,11,085,43,15,11,213,,16,,,29*4E
$GPGSV,6,5,24,17,44,061,,19,65,108,,22,,,20,24,,,31*79
$GPGSV,6,6,24,25,,,28,26,,,30,27,,,29,40,25,159,38*4E
$GPGLL,5544.93175,N,03734.73777,E,090530.00,A,A*6F
$GPRMC,090531.00,A,5544.93237,N,03734.73922,E,1.063,71.58,110323,,,A*5F
$GPVTG,71.58,T,,M,1.063,N,1.968,K,A*04
$GPGGA,090531.00,5544.93237,N,03734.73922,E,1,05,3.05,178.1,M,13.3,M,,*5D
$GPGSA,A,2,14,06,13,07,09,,,,,,,,3.21,3.05,1.00*0B
$GPGSV,6,1,24,01,,,28,02,,,30,03,,,31,04,,,31*75
$GPGSV,6,2,24,05,,,28,06,21,128,35,07,73,204,38,08,68,105,44*40
$GPGSV,6,3,24,09,68,105,44,10,,,23,11,,,30,12,,,31*4B
$GPGSV,6,4,24,13,16,327,44,14,11,085,44,15,11,213,,16,,,30*46
$GPGSV,6,5,24,17,44,061,,19,65,108,,22,,,28,24,,,32*72
$GPGSV,6,6,24,25,,,19,26,,,30,27,,,29,40,25,159,38*4C
$GPGLL,5544.93237,N,03734.73922,E,090531.00,A,A*65
$GPRMC,090532.00,A,5544.93304,N,03734.74077,E,0.865,,110323,,,A*79
$GPVTG,,T,,M,0.865,N,1.602,K,A*2D
$GPGGA,090532.00,5544.93304,N,03734.74077,E,1,03,3.05,177.4,M,13.3,M,,*5D
$GPGSA,A,2,13,07,09,,,,,,,,,,3.21,3.05,1.00*08
$GPGSV,6,1,23,01,,,28,02,,,30,03,,,30,04,,,30*72
$GPGSV,6,2,23,05,,,27,06,21,128,,07,73,204,38,08,68,105,43*49
$GPGSV,6,3,23,09,68,105,43,10,,,30,11,,,30,12,,,31*49
$GPGSV,6,4,23,13,16,327,43,14,11,085,46,15,11,213,,16,,,29*4C
$GPGSV,6,5,23,17,44,061,39,19,65,108,,24,,,31,25,,,19*79
$GPGSV,6,6,23,26,,,29,27,,,28,40,25,159,38*4D
$GPGLL,5544.93304,N,03734.74077,E,090532.00,A,A*69
$GPRMC,090533.00,A,5544.93369,N,03734.74226,E,1.012,72.75,110323,,,A*55
$GPVTG,72.75,T,,M,1.012,N,1.875,K,A*03
$GPGGA,090533.00,5544.93369,N,03734.74226,E,1,04,3.05,177.4,M,13.3,M,,*56
$GPGSA,A,2,17,13,07,09,,,,,,,,,3.21,3.05,1.00*0E
$GPGSV,6,1,23,01,,,28,02,,,30,03,,,30,04,,,30*72
$GPGSV,6,2,23,05,,,27,06,21,128,,07,73,204,37,08,68,105,44*41
$GPGSV,6,3,23,09,68,105,43,10,,,30,11,,,30,12,,,31*49
$GPGSV,6,4,23,13,16,327,43,14,11,085,38,15,11,213,,16,,,29*45
$GPGSV,6,5,23,17,44,061,37,19,65,108,37,24,,,31,25,,,16*7C
$GPGSV,6,6,23,26,,,29,27,,,28,40,25,159,38*4D
$GPGLL,5544.93369,N,03734.74226,E,090533.00,A,A*65
$GPRMC,090534.00,A,5544.93432,N,03734.74370,E,0.664,,110323,,,A*76
$GPVTG,,T,,M,0.664,N,1.229,K,A*2F
$GPGGA,090534.00,5544.93432,N,03734.74370,E,1,04,3.04,177.5,M,13.3,M,,*5A
$GPGSA,A,2,14,13,07,09,,,,,,,,,3.20,3.04,1.00*0D
$GPGSV,6,1,22,01,,,26,02,,,29,03,,,29,04,,,30*7D
$GPGSV,6,2,22,05,,,27,06,21,128,,07,73,204,36,08,68,104,43*47
$GPGSV,6,3,22,09,68,105,43,10,,,29,11,,,30,12,,,30*41
$GPGSV,6,4,22,13,16,327,43,14,11,085,43,15,11,213,,16,,,29*48
$GPGSV,6,5,22,17,44,061,,19,65,108,,24,,,30,26,,,28*72
$GPGSV,6,6,22,27,,,27,40,25,159,37*43
$GPGLL,5544.93432,N,03734.74370,E,090534.00,A,A*69
$GPRMC,090535.00,A,5544.93490,N,03734.74509,E,0.791,,110323,,,A*7C
$GPVTG,,T,,M,0.791,N,1.464,K,A*2B
$GPGGA,090535.00,5544.93490,N,03734.74509,E,1,03,3.04,178.0,M,13.3,M,,*56
$GPGSA,A,2,13,07,09,,,,,,,,,,3.20,3.04,1.00*08
$GPGSV,6,1,22,01,,,26,02,,,29,03,,,30,04,,,30*75
$GPGSV,6,2,22,05,,,28,06,21,128,,07,73,204,37,08,68,104,44*4E
$GPGSV,6,3,22,09,68,104,43,10,,,29,11,,,31,12,,,31*40
$GPGSV,6,4,22,13,16,327,43,14,11,085,43,15,11,213,,16,,,29*48
$GPGSV,6,5,22,17,44,061,,19,65,108,,24,,,31,26,,,29*72
$GPGSV,6,6,22,27,,,28,40,25,159,38*43
$GPGLL,5544.93490,N,03734.74509,E,090535.00,A,A*68
$GPRMC,090536.00,A,5544.93547,N,03734.74642,E,0.868,,110323,,,A*71
$GPVTG,,T,,M,0.868,N,1.608,K,A*2A
$GPGGA,090536.00,5544.93547,N,03734.74642,E,1,04,3.04,177.8,M,13.3,M,,*52
$GPGSA,A,2,14,13,07,09,,,,,,,,,3.20,3.04,1.00*0D
$GPGSV,6,1,22,01,,,24,02,,,30,03,,,30,04,,,30*7F
$GPGSV,6,2,22,05,,,27,06,21,128,,07,73,204,37,08,68,104,44*41
$GPGSV,6,3,22,09,68,104,44,10,,,29,11,,,31,12,,,31*47
$GPGSV,6,4,22,13,16,327,44,14,11,085,44,15,11,213,,16,,,29*48
$GPGSV,6,5,22,17,44,061,,19,65,108,40,24,,,31,26,,,29*76
$GPGSV,6,6,22,27,,,28,40,25,159,38*43
$GPGLL,5544.93547,N,03734.74642,E,090536.00,A,A*6C
$GPRMC,090537.00,A,5544.93601,N,03734.74770,E,0.997,73.38,110323,,,A*51
$GPVTG,73.38,T,,M,0.997,N,1.846,K,A*0E
$GPGGA,090537.00,5544.93601,N,03734.74770,E,1,04,3.04,177.6,M,13.3,M,,*5C
$GPGSA,A,2,17,13,07,09,,,,,,,,,3.20,3.04,1.00*0E
$GPGSV,6,1,22,01,,,23,02,,,29,03,,,29,04,,,30*78
$GPGSV,6,2,22,05,,,27,06,21,128,,07,73,204,37,08,68,104,44*41
$GPGSV,6,3,22,09,68,104,44,10,,,29,11,,,31,12,,,31*47
$GPGSV,6,4,22,13,16,327,44,14,11,085,39,15,11,213,,16,,,29*42
$GPGSV,6,5,22,17,44,061,33,19,65,108,,24,,,31,26,,,29*72
$GPGSV,6,6,22,27,,,28,40,25,159,38*43
$GPGLL,5544.93601,N,03734.74770,E,090537.00,A,A*6C
$GPRMC,090538.00,A,5544.93659,N,03734.74906,E,0.940,,110323,,,A*77
$GPVTG,,T,,M,0.940,N,1.741,K,A*2D
$GPGGA,090538.00,5544.93659,N,03734.74906,E,1,04,3.04,177.7,M,13.3,M,,*50
$GPGSA,A,2,14,13,07,09,,,,,,,,,3.20,3.04,1.00*0D
$GPGSV,6,1,22,01,,,19,02,,,29,03,,,29,04,,,30*71
$GPGSV,6,2,22,05,,,26,06,21,128,29,07,73,204,37,08,68,104,44*4B
$GPGSV,6,3,22,09,68,104,43,10,,,29,11,,,31,12,,,31*40
$GPGSV,6,4,22,13,16,327,43,14,11,085,43,15,11,213,32,16,,,29*49
$GPGSV,6,5,22,17,44,061,,19,65,108,,24,,,31,26,,,28*73
$GPGSV,6,6,22,27,,,28,40,25,159,38*43
$GPGLL,5544.93659,N,03734.74906,E,090538.00,A,A*61
$GPRMC,090539.00,A,5544.93716,N,03734.75039,E,0.812,,110323,,,A*7E
$GPVTG,,T,,M,0.812,N,1.504,K,A*28
$GPGGA,090539.00,5544.93716,N,03734.75039,E,1,05,3.04,177.8,M,13.3,M,,*51
$GPGSA,A,2,13,15,06,07,09,,,,,,,,3.20,3.04,1.00*0A
$GPGSV,6,1,21,02,,,29,03,,,29,04,,,29,05,,,26*72
$GPGSV,6,2,21,06,21,128,26,07,73,204,37,08,68,104,44,09,68,104,44*74
$GPGSV,6,3,21,10,,,29,11,,,31,12,,,30,13,16,327,44*44
$GPGSV,6,4,21,14,11,085,43,15,11,213,30,16,,,29,17,44,061,*4D
$GPGSV,6,5,21,19,65,108,,24,,,31,26,,,28,27,,,28*4E
$GPGSV,6,6,21,40,25,159,38*4F
$GPGLL,5544.93716,N,03734.75039,E,090539.00,A,A*6E
$GPRMC,090540.00,A,5544.93776,N,03734.75177,E,0.616,,110323,,,A*77
$GPVTG,,T,,M,0.616,N,1.141,K,A*27
$GPGGA,090540.00,5544.93776,N,03734.75177,E,1,04,3.04,178.1,M,13.3,M,,*55
$GPGSA,A,2,14,13,07,09,,,,,,,,,3.20,3.04,1.00*0D
$GPGSV,6,1,22,01,,,31,02,,,29,03,,,29,04,,,29*73
$GPGSV,6,2,22,05,,,26,06,21,128,,07,73,204,38,08,68,104,44*4F
$GPGSV,6,3,22,09,68,104,43,10,,,29,11,,,31,12,,,30*41
$GPGSV,6,4,22,13,16,327,43,14,11,085,43,15,11,213,,16,,,29*48
$GPGSV,6,5,22,17,44,061,,19,65,108,,24,,,31,26,,,28*73
$GPGSV,6,6,22,27,,,28,40,25,159,38*43
$GPGLL,5544.93776,N,03734.75177,E,090540.00,A,A*6D
$GPRMC,090541.00,A,5544.93825,N,03734.75294,E,0.745,,110323,,,A*76
$GPVTG,,T,,M,0.745,N,1.380,K,A*2F
$GPGGA,090541.00,5544.93825,N,03734.75294,E,1,05,3.04,179.0,M,13.3,M,,*52
$GPGSA,A,2,17,13,15,07,09,,,,,,,,3.20,3.04,1.00*0A
$GPGSV,6,1,22,01,,,30,02,,,29,03,,,29,04,,,30*7A
$GPGSV,6,2,22,05,,,26,06,21,128,,07,73,204,37,08,68,104,43*47
$GPGSV,6,3,22,09,68,104,43,10,,,29,11,,,30,12,,,30*40
$GPGSV,6,4,22,13,16,327,43,14,11,085,,15,11,213,33,16,,,29*4F
$GPGSV,6,5,22,17,44,061,40,19,65,107,,24,,,30,26,,,29*78
$GPGSV,6,6,22,27,,,27,40,25,159,38*4C
$GPGLL,5544.93825,N,03734.75294,E,090541.00,A,A*6B
$GPRMC,090542.00,A,5544.93873,N,03734.75410,E,0.992,71.75,110323,,,A*52
$GPVTG,71.75,T,,M,0.992,N,1.838,K,A*09
$GPGGA,090542.00,5544.93873,N,03734.75410,E,1,05,3.04,179.5,M,13.3,M,,*5D
$GPGSA,A,2,14,19,13,07,09,,,,,,,,3.20,3.04,1.00*05
$GPGSV,6,1,23,01,,,29,02,,,29,03,,,28,04,,,30*72
$GPGSV,6,2,23,05,,,25,06,21,128,,07,73,204,37,08,68,104,43*45
$GPGSV,6,3,23,09,68,104,42,10,,,27,11,,,30,12,,,30*4E
$GPGSV,6,4,23,13,16,327,43,14,11,085,42,15,11,213,,16,,,28*49
$GPGSV,6,5,23,17,44,061,36,19,65,107,39,24,,,30,26,,,28*73
$GPGSV,6,6,23,27,,,25,29,,,31,40,25,159,37*49
$GPGLL,5544.93873,N,03734.75410,E,090542.00,A,A*61
$GPRMC,090543.00,A,5544.93921,N,03734.75524,E,0.893,,110323,,,A*79
$GPVTG,,T,,M,0.893,N,1.655,K,A*26
$GPGGA,090543.00,5544.93921,N,03734.75524,E,1,04,3.04,180.0,M,13.3,M,,*5E
$GPGSA,A,2,13,06,07,09,,,,,,,,,3.20,3.04,1.00*0E
$GPGSV,6,1,23,01,,,28,02,,,29,03,,,27,04,,,30*7C
$GPGSV,6,2,23,05,,,25,06,21,128,34,07,73,204,37,08,68,104,44*45
$GPGSV,6,3,23,09,68,104,43,10,,,28,11,,,30,12,,,30*40
$GPGSV,6,4,23,13,16,327,43,14,11,085,42,15,11,213,,16,,,28*49
$GPGSV,6,5,23,17,44,061,36,19,65,107,,24,,,30,26,,,28*79
$GPGSV,6,6,23,27,,,26,29,,,31,40,25,159,36*4B
$GPGLL,5544.93921,N,03734.75524,E,090543.00,A,A*60
$GPRMC,090544.00,A,5544.93969,N,03734.75638,E,0.720,,110323,,,A*7B
$GPVTG,,T,,M,0.720,N,1.333,K,A*24
$GPGGA,090544.00,5544.93969,N,03734.75638,E,1,04,3.04,180.5,M,13.3,M,,*5E
$GPGSA,A,2,14,13,07,09,,,,,,,,,3.20,3.04,1.00*0D
$GPGSV,6,1,23,01,,,30,02,,,29,03,,,28,04,,,30*7A
$GPGSV,6,2,23,05,,,26,06,21,128,,07,73,204,37,08,68,104,43*46
$GPGSV,6,3,23,09,68,104,43,10,,,29,11,,,30,12,,,30*41
$GPGSV,6,4,23,13,16,327,43,14,11,085,43,15,11,213,,16,,,28*48
$GPGSV,6,5,23,17,44,061,,19,65,107,,24,,,30,26,,,28*7C
$GPGSV,6,6,23,27,,,27,29,,,31,40,25,159,35*49
$GPGLL,5544.93969,N,03734.75638,E,090544.00,A,A*65
$GPRMC,090545.00,A,5544.94012,N,03734.75748,E,0.870,,110323,,,A*74
$GPVTG,,T,,M,0.870,N,1.611,K,A*2B
$GPGGA,090545.00,5544.94012,N,03734.75748,E,1,05,3.04,180.5,M,13.3,M,,*5A
$GPGSA,A,2,14,13,06,07,09,,,,,,,,3.20,3.04,1.00*0B
$GPGSV,6,1,23,01,,,31,02,,,29,03,,,28,04,,,30*7B
$GPGSV,6,2,23,05,,,26,06,21,128,32,07,73,204,36,08,68,104,43*46
$GPGSV,6,3,23,09,68,104,43,10,,,29,11,,,30,12,,,30*41
$GPGSV,6,4,23,13,16,327,43,14,11,085,43,15,11,213,,16,,,28*48
$GPGSV,6,5,23,17,44,061,,19,65,107,,24,,,30,26,,,28*7C
$GPGSV,6,6,23,27,,,27,29,,,30,40,25,159,34*49
$GPGLL,5544.94012,N,03734.75748,E,090545.00,A,A*60
$GPRMC,090546.00,A,5544.94058,N,03734.75861,E,0.726,,110323,,,A*71
$GPVTG,,T,,M,0.726,N,1.345,K,A*23
$GPGGA,090546.00,5544.94058,N,03734.75861,E,1,03,3.04,180.6,M,13.3,M,,*56
$GPGSA,A,2,13,07,09,,,,,,,,,,3.20,3.04,1.00*08
$GPGSV,6,1,23,01,,,32,02,,,29,03,,,30,04,,,30*71
$GPGSV,6,2,23,05,,,26,06,21,128,35,07,73,204,37,08,68,104,44*47
$GPGSV,6,3,23,09,68,104,43,10,,,30,11,,,31,12,,,30*48
$GPGSV,6,4,23,13,16,327,43,14,11,085,41,15,11,213,,16,,,29*4B
$GPGSV,6,5,23,17,44,061,,19,65,107,,24,,,31,26,,,29*7C
$GPGSV,6,6,23,27,,,28,29,,,31,40,25,159,33*40
$GPGLL,5544.94058,N,03734.75861,E,090546.00,A,A*69
$GPRMC,090547.00,A,5544.94097,N,03734.75965,E,1.022,71.46,110323,,,A*5E
$GPVTG,71.46,T,,M,1.022,N,1.892,K,A*0A
$GPGGA,090547.00,5544.94097,N,03734.75965,E,1,04,3.04,181.0,M,13.3,M,,*51
$GPGSA,A,2,13,06,07,09,,,,,,,,,3.20,3.04,1.00*0E
$GPGSV,6,1,23,01,,,32,02,,,29,03,,,30,04,,,31*70
$GPGSV,6,2,23,05,,,26,06,21,128,34,07,73,204,37,08,68,104,44*46
$GPGSV,6,3,23,09,68,104,43,10,,,30,11,,,31,12,,,30*48
$GPGSV,6,4,23,13,16,327,43,14,11,085,39,15,11,213,,16,,,29*44
$GPGSV,6,5,23,17,44,061,,19,65,107,,24,,,31,26,,,29*7C
$GPGSV,6,6,23,27,,,28,29,,,32,40,25,159,33*43
$GPGLL,5544.94097,N,03734.75965,E,090547.00,A,A*6E
$GPRMC,090548.00,A,5544.94139,N,03734.76071,E,0.869,,110323,,,A*77
$GPVTG,,T,,M,0.869,N,1.610,K,A*22
$GPGGA,090548.00,5544.94139,N,03734.76071,E,1,03,3.04,181.1,M,13.3,M,,*52
$GPGSA,A,2,13,07,09,,,,,,,,,,3.20,3.04,1.00*08
$GPGSV,6,1,23,01,,,32,02,,,29,03,,,30,04,,,31*70
$GPGSV,6,2,23,05,,,27,06,21,128,,07,73,204,37,08,68,104,43*47
$GPGSV,6,3,23,09,68,104,43,10,,,30,11,,,31,12,,,30*48
$GPGSV,6,4,23,13,16,327,43,14,11,085,43,15,11,213,31,16,,,29*4B
$GPGSV,6,5,23,17,44,061,,19,65,107,,24,,,31,26,,,29*7C
$GPGSV,6,6,23,27,,,28,29,,,32,40,25,159,34*44
$GPGLL,5544.94139,N,03734.76071,E,090548.00,A,A*6B
$GPRMC,090549.00,A,5544.94183,N,03734.76179,E,0.700,,110323,,,A*7E
$GPVTG,,T,,M,0.700,N,1.297,K,A*29
$GPGGA,090549.00,5544.94183,N,03734.76179,E,1,04,3.04,181.3,M,13.3,M,,*5E
$GPGSA,A,2,14,13,07,09,,,,,,,,,3.20,3.04,1.00*0D
$GPGSV,6,1,23,01,,,32,02,,,30,03,,,30,04,,,31*78
$GPGSV,6,2,23,05,,,28,06,21,128,40,07,73,204,38,08,68,104,44*44
$GPGSV,6,3,23,09,68,104,43,10,,,30,11,,,31,12,,,30*48
$GPGSV,6,4,23,13,16,327,43,14,11,085,43,15,11,213,,16,,,29*49
$GPGSV,6,5,23,17,44,061,,19,65,107,,24,,,31,26,,,29*7C
$GPGSV,6,6,23,27,,,29,29,,,32,40,25,159,35*44
$GPGLL,5544.94183,N,03734.76179,E,090549.00,A,A*62
$GPRMC,090550.00,A,5544.94220,N,03734.76278,E,0.737,,110323,,,A*7A
$GPVTG,,T,,M,0.737,N,1.364,K,A*20
$GPGGA,090550.00,5544.94220,N,03734.76278,E,1,04,3.03,181.5,M,13.3,M,,*5F
$GPGSA,A,2,15,13,07,09,,,,,,,,,3.20,3.03,1.00*0B
$GPGSV,6,1,23,01,,,32,02,,,30,03,,,29,04,,,31*70
$GPGSV,6,2,23,05,,,28,06,21,128,39,07,73,204,37,08,68,104,43*42
$GPGSV,6,3,23,09,68,104,43,10,,,29,11,,,31,12,,,30*40
$GPGSV,6,4,23,13,16,327,43,14,11,085,41,15,11,213,31,16,,,29*49
$GPGSV,6,5,23,17,44,061,,19,65,107,,24,,,31,26,,,29*7C
$GPGSV,6,6,23,27,,,28,29,,,32,40,25,159,35*45
$GPGLL,5544.94220,N,03734.76278,E,090550.00,A,A*62
$GPRMC,090551.00,A,5544.94255,N,03734.76378,E,1.239,67.50,110323,,,A*58
$GPVTG,67.50,T,,M,1.239,N,2.294,K,A*0D
$GPGGA,090551.00,5544.94255,N,03734.76378,E,1,04,3.03,181.5,M,13.3,M,,*5D
$GPGSA,A,2,13,06,07,09,,,,,,,,,3.19,3.03,1.00*03
$GPGSV,6,1,23,01,,,27,02,,,30,03,,,29,04,,,31*74
$GPGSV,6,2,23,05,,,28,06,21,128,36,07,73,204,37,08,68,104,44*4A
$GPGSV,6,3,23,09,68,104,44,10,,,29,11,,,31,12,,,30*47
$GPGSV,6,4,23,13,16,327,44,14,11,085,39,15,11,213,,16,,,28*42
$GPGSV,6,5,23,17,44,061,,19,65,107,,24,,,31,26,,,29*7C
$GPGSV,6,6,23,27,,,28,29,,,32,40,25,159,34*44
$GPGLL,5544.94255,N,03734.76378,E,090551.00,A,A*60
$GPRMC,090552.00,A,5544.94295,N,03734.76481,E,0.845,,110323,,,A*7C
$GPVTG,,T,,M,0.845,N,1.566,K,A*2E
$GPGGA,090552.00,5544.94295,N,03734.76481,E,1,04,3.03,181.3,M,13.3,M,,*55
$GPGSA,A,2,13,06,07,09,,,,,,,,,3.19,3.03,1.00*03
$GPGSV,6,1,23,01,,,32,02,,,30,03,,,30,04,,,31*78
$GPGSV,6,2,23,05,,,28,06,21,128,37,07,73,204,37,08,68,104,44*4B
$GPGSV,6,3,23,09,68,104,44,10,,,30,11,,,30,12,,,31*4F
$GPGSV,6,4,23,13,16,327,43,14,11,085,43,15,11,213,,16,,,28*48
$GPGSV,6,5,23,17,44,061,,19,65,107,,24,,,31,26,,,29*7C
$GPGSV,6,6,23,27,,,28,29,,,32,40,25,159,35*45
$GPGLL,5544.94295,N,03734.76481,E,090552.00,A,A*6E
$GPRMC,090553.00,A,5544.94333,N,03734.76582,E,0.808,,110323,,,A*7B
$GPVTG,,T,,M,0.808,N,1.496,K,A*29
$GPGGA,090553.00,5544.94333,N,03734.76582,E,1,03,3.03,181.4,M,13.3,M,,*5B
$GPGSA,A,2,13,07,09,,,,,,,,,,3.19,3.03,1.00*05
$GPGSV,6,1,23,01,,,32,02,,,30,03,,,29,04,,,31*70
$GPGSV,6,2,23,05,,,28,06,21,128,,07,73,204,38,08,68,104,44*40
$GPGSV,6,3,23,09,68,104,43,10,,,30,11,,,31,12,,,30*48
$GPGSV,6,4,23,13,16,327,43,14,11,085,44,15,11,213,,16,,,28*4F
$GPGSV,6,5,23,17,44,061,,19,65,107,,24,,,31,26,,,29*7C
$GPGSV,6,6,23,27,,,28,29,,,32,40,25,159,35*45
$GPGLL,5544.94333,N,03734.76582,E,090553.00,A,A*60
$GPRMC,090554.00,A,5544.94369,N,03734.76680,E,0.968,69.30,110323,,,A*57
$GPVTG,69.30,T,,M,0.968,N,1.794,K,A*0D
$GPGGA,090554.00,5544.94369,N,03734.76680,E,1,04,3.03,181.7,M,13.3,M,,*56
$GPGSA,A,2,13,06,07,09,,,,,,,,,3.19,3.03,1.00*03
$GPGSV,6,1,23,01,,,31,02,,,30,03,,,29,04,,,31*73
$GPGSV,6,2,23,05,,,28,06,21,128,35,07,73,204,37,08,68,104,43*4E
$GPGSV,6,3,23,09,68,104,43,10,,,29,11,,,30,12,,,30*41
$GPGSV,6,4,23,13,16,327,43,14,11,085,39,15,11,213,34,16,,,28*42
$GPGSV,6,5,23,17,44,061,,19,65,107,,24,,,31,26,,,29*7C
$GPGSV,6,6,23,27,,,27,29,,,31,40,25,159,35*49
$GPGLL,5544.94369,N,03734.76680,E,090554.00,A,A*69
$GPRMC,090555.00,V,,,,,,,110323,,,N*73
$GPVTG,,,,,,,,,N*30
$GPGGA,090555.00,,,,,0,00,99.99,,,,,,*6A
$GPGSA,A,1,,,,,,,,,,,,,99.99,99.99,99.99*30
$GPGSV,6,1,23,01,,,30,02,,,29,03,,,29,04,,,30*7B
$GPGSV,6,2,23,05,,,27,06,21,128,,07,73,204,37,08,68,104,42*46
$GPGSV,6,3,23,09,,,42,10,,,29,11,,,30,12,,,30*7B
$GPGSV,6,4,23,13,16,327,42,14,11,085,42,15,11,213,,16,,,28*48
$GPGSV,6,5,23,17,44,061,39,19,65,107,,24,,,30,26,,,28*76
$GPGSV,6,6,23,27,,,27,29,,,31,40,25,159,34*48
$GPGLL,,,,,090555.00,V,N*46
$GPRMC,090556.00,V,,,,,,,110323,,,N*70
$GPVTG,,,,,,,,,N*30
$GPGGA,090556.00,,,,,0,00,99.99,,,,,,*69
$GPGSA,A,1,,,,,,,,,,,,,99.99,99.99,99.99*30
$GPGSV,6,1,23,01,,,30,02,,,28,03,,,29,04,,,30*7A
$GPGSV,6,2,23,05,,,27,06,21,128,,07,73,204,37,08,68,104,43*47
$GPGSV,6,3,23,09,,,42,10,,,30,11,,,30,12,,,30*73
$GPGSV,6,4,23,13,16,327,42,14,11,085,43,15,11,213,,16,,,27*46
$GPGSV,6,5,23,17,44,061,41,19,65,107,,24,,,30,26,,,28*79
$GPGSV,6,6,23,27,,,28,29,,,31,40,25,159,36*45
$GPGLL,,,,,090556.00,V,N*45
$GPRMC,090557.00,V,,,,,,,110323,,,N*71
$GPVTG,,,,,,,,,N*30
$GPGGA,090557.00,,,,,0,00,99.99,,,,,,*68
$GPGSA,A,1,,,,,,,,,,,,,99.99,99.99,99.99*30
$GPGSV,6,1,23,01,,,31,02,,,30,03,,,30,04,,,31*7B
$GPGSV,6,2,23,05,,,28,06,21,128,,07,73,204,37,08,68,104,44*4F
$GPGSV,6,3,23,09,,,44,10,,,30,11,,,30,12,,,31*74
$GPGSV,6,4,23,13,16,327,44,14,11,085,43,15,11,213,31,16,,,28*4D
$GPGSV,6,5,23,17,44,061,41,19,65,107,,24,,,31,26,,,28*78
$GPGSV,6,6,23,27,,,29,29,,,32,40,25,159,37*46
$GPGLL,,,,,090557.00,V,N*44
$GPRMC,090558.00,V,,,,,,,110323,,,N*7E
$GPVTG,,,,,,,,,N*30
$GPGGA,090558.00,,,,,0,00,99.99,,,,,,*67
$GPGSA,A,1,,,,,,,,,,,,,99.99,99.99,99.99*30
$GPGSV,6,1,23,01,,,30,02,,,30,03,,,30,04,,,31*7A
$GPGSV,6,2,23,05,,,28,06,21,128,,07,73,204,37,08,68,104,44*4F
$GPGSV,6,3,23,09,,,44,10,,,30,11,,,31,12,,,31*75
$GPGSV,6,4,23,13,16,327,44,14,11,085,43,15,11,213,35,16,,,29*48
$GPGSV,6,5,23,17,44,061,41,19,65,107,,24,,,31,26,,,28*78
$GPGSV,6,6,23,27,,,28,29,,,32,40,25,159,38*48
$GPGLL,,,,,090558.00,V,N*4B
$GPRMC,090559.00,V,,,,,,,110323,,,N*7F
$GPVTG,,,,,,,,,N*30
$GPGGA,090559.00,,,,,0,00,99.99,,,,,,*66
$GPGSA,A,1,,,,,,,,,,,,,99.99,99.99,99.99*30
$GPGSV,6,1,23,01,,,30,02,,,30,03,,,30,04,,,31*7A
$GPGSV,6,2,23,05,,,28,06,21,128,,07,72,203,37,08,68,104,44*49
$GPGSV,6,3,23,09,,,44,10,,,30,11,,,31,12,,,31*75
$GPGSV,6,4,23,13,16,327,44,14,11,085,44,15,11,213,35,16,,,29*4F
$GPGSV,6,5,23,17,44,061,41,19,65,107,,24,,,31,26,,,29*79
$GPGSV,6,6,23,27,,,28,29,,,32,40,25,159,38*48
$GPGLL,,,,,090559.00,V,N*4A
$GPRMC,090600.00,V,,,,,,,110323,,,N*70
$GPVTG,,,,,,,,,N*30
$GPGGA,090600.00,,,,,0,00,99.99,,,,,,*69
$GPGSA,A,1,,,,,,,,,,,,,99.99,99.99,99.99*30
$GPGSV,6,1,23,01,,,31,02,,,30,03,,,30,04,,,31*7B
$GPGSV,6,2,23,05,,,28,06,21,128,35,07,72,203,37,08,68,104,44*4F
$GPGSV,6,3,23,09,68,104,43,10,,,30,11,,,31,12,,,31*49
$GPGSV,6,4,23,13,16,327,44,14,11,085,,15,11,213,34,16,,,29*4E
$GPGSV,6,5,23,17,44,061,39,19,65,107,,24,,,31,26,,,29*76
$GPGSV,6,6,23,27,,,28,29,,,32,40,25,159,38*48
$GPGLL,,,,,090600.00,V,N*45
$GPRMC,090601.00,V,,,,,,,110323,,,N*71
$GPVTG,,,,,,,,,N*30
$GPGGA,090601.00,,,,,0,06,3.03,,,,,,*5E
$GPGSA,A,1,17,15,13,06,07,09,,,,,,,3.19,3.03,1.00*02
$GPGSV,6,1,23,01,,,31,02,,,30,03,,,30,04,,,30*7A
$GPGSV,6,2,23,05,,,28,06,21,128,36,07,72,203,38,08,68,104,44*43
$GPGSV,6,3,23,09,68,104,44,10,,,30,11,,,31,12,,,30*4F
$GPGSV,6,4,23,13,16,327,44,14,11,085,46,15,11,213,35,16,,,29*4D
$GPGSV,6,5,23,17,44,061,37,19,65,107,,24,,,31,26,,,29*78
$GPGSV,6,6,23,27,,,29,29,,,32,40,25,159,37*46
$GPGLL,,,,,090601.00,V,N*44
$GPRMC,090602.00,A,5544.96422,N,03734.80531,E,1.074,72.41,110323,,,A*54
$GPVTG,72.41,T,,M,1.074,N,1.989,K,A*06
$GPGGA,090602.00,5544.96422,N,03734.80531,E,1,03,3.03,191.6,M,13.3,M,,*5B
$GPGSA,A,2,13,07,09,,,,,,,,,,3.19,3.03,1.00*05
$GPGSV,7,1,25,01,,,31,02,,,29,03,,,29,04,,,29*75
$GPGSV,7,2,25,05,,,29,06,21,128,,07,72,203,38,08,68,104,44*40
$GPGSV,7,3,25,09,68,104,44,10,,,29,11,,,31,12,,,29*48
$GPGSV,7,4,25,13,16,327,44,14,11,085,46,15,11,213,,16,,,29*4C
$GPGSV,7,5,25,17,44,061,,19,65,107,,24,,,31,26,,,29*7B
$GPGSV,7,6,25,27,,,29,29,,,32,37,25,199,29,39,26,195,33*71
$GPGSV,7,7,25,40,25,159,37*44
$GPGLL,5544.96422,N,03734.80531,E,090602.00,A,A*63
$